[{"formatted_address":"289 10th Ave, New York, NY 10001, United States","name":"Marquee New York","loc":{"type":"Point","coordinates":[40.7500242,-74.0028169]},"Category":"Club"},{"formatted_address":"39 E 58th St, New York, NY 10022, United States","name":"Lavo Nightclub","loc":{"type":"Point","coordinates":[40.7629192,-73.9714301]},"Category":"Club"},{"formatted_address":"453 W 17th St, New York, NY 10011, United States","name":"1 OAK","loc":{"type":"Point","coordinates":[40.7439224,-74.0062324]},"Category":"Club"},{"formatted_address":"511 6th Ave, New York, NY 10011, United States","name":"Clubs In NYC","loc":{"type":"Point","coordinates":[40.7369455,-73.997488]},"Category":"Club"},{"formatted_address":"355 W 16th St, New York, NY 10011, United States","name":"PHD Lounge","loc":{"type":"Point","coordinates":[40.7423311,-74.0034791]},"Category":"Club"},{"formatted_address":"6 W 25th St, New York, NY 10010, United States","name":"The 40\/40 Club","loc":{"type":"Point","coordinates":[40.7429695,-73.9893858]},"Category":"Club"},{"formatted_address":"512 W 42nd St, New York, NY 10036, United States","name":"The Restaurant at Playboy New York","loc":{"type":"Point","coordinates":[40.759861,-73.996476]},"Category":"Club"},{"formatted_address":"The Standard, High Line, 848 Washington St, New York, NY 10014, United States","name":"Le Bain","loc":{"type":"Point","coordinates":[40.7408249,-74.0079698]},"Category":"Club"},{"formatted_address":"131 W 3rd St, New York, NY 10012, United States","name":"Blue Note Jazz Club","loc":{"type":"Point","coordinates":[40.7309083,-74.0006557]},"Category":"Club"},{"formatted_address":"369 W 16th St, New York, NY 10011, United States","name":"TAO Downtown Nightclub","loc":{"type":"Point","coordinates":[40.7422842,-74.0041077]},"Category":"Club"},{"formatted_address":"57 E 55th St #3205, New York, NY 10022, United States","name":"Friars Club","loc":{"type":"Point","coordinates":[40.760882,-73.9725115]},"Category":"Club"},{"formatted_address":"212 E 52nd St, New York, NY 10022, United States","name":"Club Bonafide","loc":{"type":"Point","coordinates":[40.756595,-73.969299]},"Category":"Club"},{"formatted_address":"220 12th Ave, New York, NY 10001, United States","name":"The Tunnel Nightclub","loc":{"type":"Point","coordinates":[40.7526027,-74.0072313]},"Category":"Club"},{"formatted_address":"101 Broad St, New York, NY 10004, United States","name":"Anglers' Club of New York","loc":{"type":"Point","coordinates":[40.7032944,-74.0113178]},"Category":"Club"},{"formatted_address":"10 Columbus Cir, New York, NY 10019, United States","name":"Dizzy's Club","loc":{"type":"Point","coordinates":[40.7685594,-73.9830762]},"Category":"Club"},{"formatted_address":"2751 Broadway, New York, NY 10025, United States","name":"Smoke Jazz & Supper Club","loc":{"type":"Point","coordinates":[40.8011258,-73.9681923]},"Category":"Club"},{"formatted_address":"310 Malcolm X Blvd, New York, NY 10027, United States","name":"Ginny's Supper Club","loc":{"type":"Point","coordinates":[40.8080509,-73.9447715]},"Category":"Club"},{"formatted_address":"101 Avenue A #1, New York, NY 10009, United States","name":"The Pyramid Club","loc":{"type":"Point","coordinates":[40.7258183,-73.9839495]},"Category":"Club"},{"formatted_address":"315 W 44th St Suite 5402, New York, NY 10036, United States","name":"Birdland Jazz Club","loc":{"type":"Point","coordinates":[40.7589715,-73.9896136]},"Category":"Club"},{"formatted_address":"268 West 47th Street, 8th Ave, New York, NY 10036, United States","name":"The Copacabana Times Square","loc":{"type":"Point","coordinates":[40.760166,-73.9872589]},"Category":"Club"}]