[{"formatted_address":"1026 5th Ave, New York, NY 10028, United States","id":"287dc98908e8760c257241e97566f419313dc042","name":"Marymount School of New York","loc":{"type":"Point","coordinates":[40.7799655,-73.9613682]},"Category":"Starbucks"},{"formatted_address":"20 Waterside Plaza, New York, NY 10010, United States","id":"f4718a0bfc73fb78dbb354516cd5f8bc4a633ff1","name":"The British International School of New York","loc":{"type":"Point","coordinates":[40.7368052,-73.9728819]},"Category":"Starbucks"},{"formatted_address":"1665 St Marks Ave, Brooklyn, NY 11233, United States","id":"c00ef27f6fce06eb83d14034a54568b160afa8fa","name":"New York City School District Office","loc":{"type":"Point","coordinates":[40.6733846,-73.9119427]},"Category":"Starbucks"},{"formatted_address":"44 E 2nd St, New York, NY 10003, United States","id":"12ce6ecd42e708aea41cb942c35cb59b938a585a","name":"Nord Anglia International School, New York","loc":{"type":"Point","coordinates":[40.7248751,-73.9896579]},"Category":"Starbucks"},{"formatted_address":"345 Chambers St, New York, NY 10282, United States","id":"7ba09b3c5a39799342b9e024f869a499feab17ed","name":"Stuyvesant High School","loc":{"type":"Point","coordinates":[40.7177577,-74.0138644]},"Category":"Starbucks"},{"formatted_address":"550 Short Ave, New York, NY 10004, United States","id":"5ed8ae2e23be4128fa92b8a38ec66f122bdea4c6","name":"New York Harbor School","loc":{"type":"Point","coordinates":[40.6907613,-74.0204085]},"Category":"Starbucks"},{"formatted_address":"139 W 91st St, New York, NY 10024, United States","id":"f5ac1c904582d45cad485f7a786b65feef904604","name":"Trinity School","loc":{"type":"Point","coordinates":[40.7905327,-73.9712986]},"Category":"Starbucks"},{"formatted_address":"108 E 89th St, New York, NY 10128, United States","id":"a25d6a120d424a43629097652f291a70229d928f","name":"The Dalton School","loc":{"type":"Point","coordinates":[40.781585,-73.955087]},"Category":"Starbucks"},{"formatted_address":"333 7th Ave #7, New York, NY 10001, United States","id":"680f287cfc530fe7a697aea4b88fdb68f5bf482b","name":"New York City Board-Education","loc":{"type":"Point","coordinates":[40.7474253,-73.9929049]},"Category":"Starbucks"},{"formatted_address":"301 Freedom Pl S, New York, NY 10069, United States","id":"87d428e3e6c74107f9bcc5888f102fd6bb466c16","name":"Collegiate School","loc":{"type":"Point","coordinates":[40.7737541,-73.99068]},"Category":"Starbucks"},{"formatted_address":"22 E 91st St, New York, NY 10128, United States","id":"13790fe161c5362975d582d429315bd32633cfe1","name":"The Spence School","loc":{"type":"Point","coordinates":[40.7840468,-73.9570915]},"Category":"Starbucks"},{"formatted_address":"610 E 83rd St, New York, NY 10028, United States","id":"3428ce994aed55d9a023adc138ab0c3b6a3b87ad","name":"Brearley School","loc":{"type":"Point","coordinates":[40.7724795,-73.9454309]},"Category":"Starbucks"},{"formatted_address":"259 10th Ave, New York, NY 10001, United States","id":"08ac7b73f5ad6d82627193db724f643702f8329d","name":"Avenues: The World School","loc":{"type":"Point","coordinates":[40.749594,-74.00325]},"Category":"Starbucks"},{"formatted_address":"100 East End Ave, New York, NY 10028, United States","id":"b614e88a84029ed1ce0dd1c8d1dffb62ad748084","name":"The Chapin School","loc":{"type":"Point","coordinates":[40.7739978,-73.9460843]},"Category":"Starbucks"},{"formatted_address":"222 E 16th St, New York, NY 10003, United States","id":"4b5a2e2dd9c3a10786fbb8d361e2f593d4b821f8","name":"Friends Seminary","loc":{"type":"Point","coordinates":[40.7340188,-73.9850692]},"Category":"Starbucks"},{"formatted_address":"20 E 92nd St, New York, NY 10128, United States","id":"20b2a9c837838ca846f6dfea0f0caa2312e97e6a","name":"Nightingale Bamford School","loc":{"type":"Point","coordinates":[40.784847,-73.9567637]},"Category":"Starbucks"},{"formatted_address":"505 E 75th St, New York, NY 10021, United States","id":"488da33c1d79b373ff2f295b38a97ba519373589","name":"Lyc\u00e9e Fran\u00e7ais De New York","loc":{"type":"Point","coordinates":[40.7690971,-73.9513436]},"Category":"Starbucks"},{"formatted_address":"24-50 FDR Dr, New York, NY 10010, United States","id":"adadcb89082089cc2f17cc2f0043927a2488a649","name":"United Nations International School","loc":{"type":"Point","coordinates":[40.736358,-73.973541]},"Category":"Starbucks"},{"formatted_address":"55 E 84th St, New York, NY 10028, United States","id":"22659ed69e2fef53ca5a3af0689a6ea928dd1f77","name":"Regis High School","loc":{"type":"Point","coordinates":[40.7793318,-73.9590093]},"Category":"Starbucks"},{"formatted_address":"291 Central Park West, New York, NY 10024, United States","id":"850298055faa75c9290b078bcf33dab2300eec3b","name":"Dwight School","loc":{"type":"Point","coordinates":[40.787495,-73.968128]},"Category":"Starbucks"}]