[{"formatted_address":"453 W 17th St, New York, NY 10011, United States","name":"1 OAK","loc":{"type":"Point","coordinates":[40.7439224,-74.0062324]},"Category":"Club"},{"formatted_address":"The Standard, High Line, 848 Washington St, New York, NY 10014, United States","name":"Le Bain","loc":{"type":"Point","coordinates":[40.7408249,-74.0079698]},"Category":"Club"},{"formatted_address":"289 10th Ave, New York, NY 10001, United States","name":"Marquee New York","loc":{"type":"Point","coordinates":[40.7500242,-74.0028169]},"Category":"Club"},{"formatted_address":"511 6th Ave, New York, NY 10011, United States","name":"Clubs In NYC","loc":{"type":"Point","coordinates":[40.7369455,-73.997488]},"Category":"Club"},{"formatted_address":"39 E 58th St, New York, NY 10022, United States","name":"Lavo Nightclub","loc":{"type":"Point","coordinates":[40.7629192,-73.9714301]},"Category":"Club"},{"formatted_address":"355 W 16th St, New York, NY 10011, United States","name":"PHD Lounge","loc":{"type":"Point","coordinates":[40.7423311,-74.0034791]},"Category":"Club"},{"formatted_address":"6 W 25th St, New York, NY 10010, United States","name":"The 40\/40 Club","loc":{"type":"Point","coordinates":[40.7429695,-73.9893858]},"Category":"Club"},{"formatted_address":"244 W 14th St, New York, NY 10011, United States","name":"Up&Down","loc":{"type":"Point","coordinates":[40.7392668,-74.0020156]},"Category":"Club"},{"formatted_address":"131 W 3rd St, New York, NY 10012, United States","name":"Blue Note Jazz Club","loc":{"type":"Point","coordinates":[40.7309083,-74.0006557]},"Category":"Club"},{"formatted_address":"62 Avenue C, New York, NY 10009, United States","name":"Nublu Classic","loc":{"type":"Point","coordinates":[40.7224983,-73.9797303]},"Category":"Club"},{"formatted_address":"212 E 52nd St, New York, NY 10022, United States","name":"Club Bonafide","loc":{"type":"Point","coordinates":[40.756595,-73.969299]},"Category":"Club"},{"formatted_address":"Dream Downtime lower level, 355 W 16th St, New York, NY 10011, United States","name":"Electric Room","loc":{"type":"Point","coordinates":[40.7423311,-74.003479]},"Category":"Club"},{"formatted_address":"10 Columbus Cir, New York, NY 10019, United States","name":"Dizzy's Club","loc":{"type":"Point","coordinates":[40.7685594,-73.9830762]},"Category":"Club"},{"formatted_address":"116 10th Ave, New York, NY 10011, United States","name":"Avenue","loc":{"type":"Point","coordinates":[40.744093,-74.0064306]},"Category":"Club"},{"formatted_address":"333 E 60th St, New York, NY 10022, United States","name":"Sapphire New York","loc":{"type":"Point","coordinates":[40.7606625,-73.9622756]},"Category":"Club"},{"formatted_address":"178 7th Ave S, New York, NY 10014, United States","name":"Village Vanguard","loc":{"type":"Point","coordinates":[40.7360334,-74.0016548]},"Category":"Club"},{"formatted_address":"101 Avenue A #1, New York, NY 10009, United States","name":"The Pyramid Club","loc":{"type":"Point","coordinates":[40.7258183,-73.9839495]},"Category":"Club"},{"formatted_address":"245 8th Ave, New York, NY 10011, United States","name":"New York Clubs Online","loc":{"type":"Point","coordinates":[40.7449459,-73.9991866]},"Category":"Club"},{"formatted_address":"57 E 55th St #3205, New York, NY 10022, United States","name":"Friars Club","loc":{"type":"Point","coordinates":[40.760882,-73.9725115]},"Category":"Club"},{"formatted_address":"512 W 42nd St, New York, NY 10036, United States","name":"The Restaurant at Playboy New York","loc":{"type":"Point","coordinates":[40.759861,-73.996476]},"Category":"Club"}]