[{"formatted_address":"482 W Broadway, New York, NY 10012, United States","id":"d3b60d1da252d57bc05db6b3d82f769ac0bf5cc9","name":"Starbucks","loc":{"type":"Point","coordinates":[40.7268419,-74.0002098]},"Category":"Starbucks"},{"formatted_address":"1101 - 1109, 6th Ave, New York, NY 10036, United States","id":"1457050997802b2314d6cd378f12d6ed946dd3d9","name":"Starbucks","loc":{"type":"Point","coordinates":[40.75559,-73.984106]},"Category":"Starbucks"},{"formatted_address":"4761 Broadway, New York, NY 10040, United States","id":"357050d77392f3a98edd4c65faeee339fb888151","name":"Starbucks","loc":{"type":"Point","coordinates":[40.865718,-73.927214]},"Category":"Starbucks"},{"formatted_address":"325 W 49th St, New York, NY 10019, United States","id":"5c55c74e5a3b466b77e118075d88652ca8eff51e","name":"Starbucks","loc":{"type":"Point","coordinates":[40.762192,-73.987535]},"Category":"Starbucks"},{"formatted_address":"1500 Broadway, New York, NY 10019, United States","id":"0670c3bc090a1e37682bc6822528b0fc0686363b","name":"Starbucks","loc":{"type":"Point","coordinates":[40.7567274,-73.9858802]},"Category":"Starbucks"},{"formatted_address":"525 W 26th St, New York, NY 10001, United States","id":"9e04e3b7c74c5960dbda9cd3f915e2099b715cfc","name":"Starbucks","loc":{"type":"Point","coordinates":[40.750231,-74.004019]},"Category":"Starbucks"},{"formatted_address":"80 Delancey St, New York, NY 10002, United States","id":"e493b381c69f56b47a2a616193d1138d930310ed","name":"Starbucks","loc":{"type":"Point","coordinates":[40.719333,-73.989977]},"Category":"Starbucks"},{"formatted_address":"585 2nd Ave, New York, NY 10016, United States","id":"4be28bf74764c56a2b8840bf02d2c9d1ca9aaf47","name":"Starbucks","loc":{"type":"Point","coordinates":[40.743799,-73.9768313]},"Category":"Starbucks"},{"formatted_address":"233 Broadway, New York, NY 10279, United States","id":"2a93def9659c5b516c292b1c58a403abd34fdfdd","name":"Starbucks","loc":{"type":"Point","coordinates":[40.712214,-74.008202]},"Category":"Starbucks"},{"formatted_address":"55 Liberty St, New York, NY 10005, United States","id":"b4e765f9697c0148b793e76f343f74396f59a8d5","name":"Starbucks","loc":{"type":"Point","coordinates":[40.7087904,-74.0093452]},"Category":"Starbucks"},{"formatted_address":"180 W Broadway, New York, NY 10013, United States","id":"f8a8f080d58e86a8fcb42679abbc0b60ce8c7baa","name":"Starbucks","loc":{"type":"Point","coordinates":[40.7182473,-74.007305]},"Category":"Starbucks"},{"formatted_address":"1585 Broadway, New York, NY 10036, United States","id":"6604cc2fe776b211badfb6e6d725c3b3393b83e9","name":"Starbucks Reserve","loc":{"type":"Point","coordinates":[40.759636,-73.985222]},"Category":"Starbucks"},{"formatted_address":"2045 Broadway, New York, NY 10023, United States","id":"9cc7c6c1ed4736b5fa5cc25ec7ee669b32c27a08","name":"Starbucks","loc":{"type":"Point","coordinates":[40.777769,-73.982628]},"Category":"Starbucks"},{"formatted_address":"943 2nd Ave, New York, NY 10022, United States","id":"82b934506a39084450b1fe5b7bbfefe3a2b6a026","name":"Starbucks","loc":{"type":"Point","coordinates":[40.755045,-73.968649]},"Category":"Starbucks"},{"formatted_address":"250 Vesey St #203, New York, NY 10281, United States","id":"d8675e27c87877f000d9abe8ceb330607284add4","name":"Starbucks Reserve","loc":{"type":"Point","coordinates":[40.7141516,-74.0155323]},"Category":"Starbucks"},{"formatted_address":"1411 Broadway, New York, NY 10018, United States","id":"42d8d760376922f5818bf378b81ec999e286dba6","name":"Starbucks","loc":{"type":"Point","coordinates":[40.754361,-73.987257]},"Category":"Starbucks"},{"formatted_address":"3165 Broadway 3167, New York, NY 10027, United States","id":"0935025326f2c8265f38f6076314596c404fe30e","name":"Starbucks","loc":{"type":"Point","coordinates":[40.815077,-73.959078]},"Category":"Starbucks"},{"formatted_address":"593 9th Ave, New York, NY 10036, United States","id":"530993d90be2c4fdf81437a19404260f973541a6","name":"Starbucks","loc":{"type":"Point","coordinates":[40.7590205,-73.9924826]},"Category":"Starbucks"},{"formatted_address":"38 Park Row #4, New York, NY 10038, United States","id":"21d8b8f8726f547e77422b7de3df8dd80d4e58dd","name":"Starbucks","loc":{"type":"Point","coordinates":[40.711619,-74.00673]},"Category":"Starbucks"},{"formatted_address":"49 -1\/2 1st Avenue, New York, NY 10003, United States","id":"b08688b37359271048a8cf0a24c8773fb14022e9","name":"Starbucks","loc":{"type":"Point","coordinates":[40.724759,-73.987611]},"Category":"Starbucks"}]